<?xml version='1.0' encoding='us-ascii'?>
<response>
    <test>This is a test</test>
    <row>
        <row _address="https://data.cityofchicago.org/resource/bbyy-e7gq/11" _id="249782" _position="249782"
             _uuid="5DF8BB3E-E217-4B7C-8270-C87655AE5FC8">
            <id>11</id>
            <station_name>Jeffery Blvd &amp; 71st St</station_name>
            <address>Jeffery Blvd &amp; 71st St</address>
            <total_docks>11</total_docks>
            <docks_in_service>11</docks_in_service>
            <status>In Service</status>
            <latitude>41.766638237</latitude>
            <longitude>-87.576450114</longitude>
            <location
                    human_address="{&quot;address&quot;:&quot;&quot;,&quot;city&quot;:&quot;&quot;,&quot;state&quot;:&quot;&quot;,&quot;zip&quot;:&quot;&quot;}"
                    latitude="41.76663823695" longitude="-87.5764501141" needs_recoding="false"/>
        </row>
        <row _address="https://data.cityofchicago.org/resource/bbyy-e7gq/661" _id="250405" _position="250405"
             _uuid="A22EDEF7-7DE9-4013-A2AE-29254D3BF24C">
            <id>661</id>
            <station_name>Evanston Civic Center</station_name>
            <address>Evanston Civic Center</address>
            <total_docks>15</total_docks>
            <docks_in_service>15</docks_in_service>
            <status>In Service</status>
            <latitude>42.057044</latitude>
            <longitude>-87.686554</longitude>
            <location
                    human_address="{&quot;address&quot;:&quot;&quot;,&quot;city&quot;:&quot;&quot;,&quot;state&quot;:&quot;&quot;,&quot;zip&quot;:&quot;&quot;}"
                    latitude="42.057044" longitude="-87.686554" needs_recoding="false"/>
        </row>
        <row _address="https://data.cityofchicago.org/resource/bbyy-e7gq/532" _id="250252" _position="250252"
             _uuid="42384100-58DF-496C-A556-4E052283650B">
            <id>532</id>
            <station_name>Austin Blvd &amp; Lake St</station_name>
            <address>Austin Blvd &amp; Lake St</address>
            <total_docks>11</total_docks>
            <docks_in_service>11</docks_in_service>
            <status>In Service</status>
            <latitude>41.887919</latitude>
            <longitude>-87.774446</longitude>
            <location
                    human_address="{&quot;address&quot;:&quot;&quot;,&quot;city&quot;:&quot;&quot;,&quot;state&quot;:&quot;&quot;,&quot;zip&quot;:&quot;&quot;}"
                    latitude="41.887919" longitude="-87.774446" needs_recoding="false"/>
        </row>
        <row _address="https://data.cityofchicago.org/resource/bbyy-e7gq/14" _id="249785" _position="249785"
             _uuid="53898E2F-7EB9-4256-9CA9-8C8855235377">
            <id>14</id>
            <station_name>Morgan St &amp; 18th St</station_name>
            <address>962 W. 18th St</address>
            <total_docks>15</total_docks>
            <docks_in_service>15</docks_in_service>
            <status>In Service</status>
            <latitude>41.858086</latitude>
            <longitude>-87.651073</longitude>
            <location
                    human_address="{&quot;address&quot;:&quot;&quot;,&quot;city&quot;:&quot;&quot;,&quot;state&quot;:&quot;&quot;,&quot;zip&quot;:&quot;&quot;}"
                    latitude="41.858086" longitude="-87.651073" needs_recoding="false"/>
        </row>
        <row _address="https://data.cityofchicago.org/resource/bbyy-e7gq/246" _id="250376" _position="250376"
             _uuid="4037BA61-CE4C-4A46-A7AC-B67CBAF9FD57">
            <id>246</id>
            <station_name>Ashland Ave &amp; Belle Plaine Ave</station_name>
            <address>Ashland Ave &amp; Belle Plaine Ave</address>
            <total_docks>11</total_docks>
            <docks_in_service>11</docks_in_service>
            <status>In Service</status>
            <latitude>41.956057</latitude>
            <longitude>-87.668835</longitude>
            <location
                    human_address="{&quot;address&quot;:&quot;&quot;,&quot;city&quot;:&quot;&quot;,&quot;state&quot;:&quot;&quot;,&quot;zip&quot;:&quot;&quot;}"
                    latitude="41.956057" longitude="-87.668835" needs_recoding="false"/>
        </row>
        <row _address="https://data.cityofchicago.org/resource/bbyy-e7gq/514" _id="250341" _position="250341"
             _uuid="C544D8F2-A71C-42F3-BA23-56538958D70B">
            <id>514</id>
            <station_name>Ridge Blvd &amp; Howard St</station_name>
            <address>Ridge Blvd &amp; Howard St</address>
            <total_docks>11</total_docks>
            <docks_in_service>11</docks_in_service>
            <status>In Service</status>
            <latitude>42.019276</latitude>
            <longitude>-87.68452</longitude>
            <location
                    human_address="{&quot;address&quot;:&quot;&quot;,&quot;city&quot;:&quot;&quot;,&quot;state&quot;:&quot;&quot;,&quot;zip&quot;:&quot;&quot;}"
                    latitude="42.019276" longitude="-87.68452" needs_recoding="false"/>
        </row>
        <row _address="https://data.cityofchicago.org/resource/bbyy-e7gq/2" _id="250377" _position="250377"
             _uuid="B2E47514-3490-422F-80A6-20EAD15D469D">
            <id>2</id>
            <station_name>Buckingham Fountain</station_name>
            <address>Buckingham Fountain</address>
            <total_docks>39</total_docks>
            <docks_in_service>39</docks_in_service>
            <status>In Service</status>
            <latitude>41.87647</latitude>
            <longitude>-87.62034</longitude>
            <location
                    human_address="{&quot;address&quot;:&quot;&quot;,&quot;city&quot;:&quot;&quot;,&quot;state&quot;:&quot;&quot;,&quot;zip&quot;:&quot;&quot;}"
                    latitude="41.87647" longitude="-87.62034" needs_recoding="false"/>
        </row>
        <row _address="https://data.cityofchicago.org/resource/bbyy-e7gq/106" _id="249867" _position="249867"
             _uuid="B03C055C-C3CE-4BCC-A9E3-A74701A66D4A">
            <id>106</id>
            <station_name>State St &amp; Pearson St</station_name>
            <address>State St &amp; Pearson St</address>
            <total_docks>27</total_docks>
            <docks_in_service>27</docks_in_service>
            <status>In Service</status>
            <latitude>41.897448</latitude>
            <longitude>-87.628722</longitude>
            <location
                    human_address="{&quot;address&quot;:&quot;&quot;,&quot;city&quot;:&quot;&quot;,&quot;state&quot;:&quot;&quot;,&quot;zip&quot;:&quot;&quot;}"
                    latitude="41.897448" longitude="-87.628722" needs_recoding="false"/>
        </row>
        <row _address="https://data.cityofchicago.org/resource/bbyy-e7gq/625" _id="250368" _position="250368"
             _uuid="213112CA-F971-4BF0-A62A-FE441045417F">
            <id>625</id>
            <station_name>Chicago Ave &amp; Dempster St</station_name>
            <address>Chicago Ave &amp; Dempster St</address>
            <total_docks>15</total_docks>
            <docks_in_service>15</docks_in_service>
            <status>In Service</status>
            <latitude>42.041691</latitude>
            <longitude>-87.680687</longitude>
            <location
                    human_address="{&quot;address&quot;:&quot;&quot;,&quot;city&quot;:&quot;&quot;,&quot;state&quot;:&quot;&quot;,&quot;zip&quot;:&quot;&quot;}"
                    latitude="42.041691" longitude="-87.680687" needs_recoding="false"/>
        </row>
        <row _address="https://data.cityofchicago.org/resource/bbyy-e7gq/662" _id="250406" _position="250406"
             _uuid="38A031B7-3AD5-4326-BE04-E76EBF71E73D">
            <id>662</id>
            <station_name>Dodge Ave &amp; Mulford St</station_name>
            <address>Dodge Ave &amp; Mulford St</address>
            <total_docks>15</total_docks>
            <docks_in_service>15</docks_in_service>
            <status>In Service</status>
            <latitude>42.023463</latitude>
            <longitude>-87.699595</longitude>
            <location
                    human_address="{&quot;address&quot;:&quot;&quot;,&quot;city&quot;:&quot;&quot;,&quot;state&quot;:&quot;&quot;,&quot;zip&quot;:&quot;&quot;}"
                    latitude="42.023463" longitude="-87.699595" needs_recoding="false"/>
        </row>
        <row _address="https://data.cityofchicago.org/resource/bbyy-e7gq/626" _id="250370" _position="250370"
             _uuid="47857A67-9B17-4477-9E4D-376E99276768">
            <id>626</id>
            <station_name>Delano Ct &amp; Roosevelt Rd</station_name>
            <address>Delano Ct &amp; Roosevelt Rd</address>
            <total_docks>19</total_docks>
            <docks_in_service>19</docks_in_service>
            <status>In Service</status>
            <latitude>41.867491</latitude>
            <longitude>-87.63219</longitude>
            <location
                    human_address="{&quot;address&quot;:&quot;&quot;,&quot;city&quot;:&quot;&quot;,&quot;state&quot;:&quot;&quot;,&quot;zip&quot;:&quot;&quot;}"
                    latitude="41.867491" longitude="-87.63219" needs_recoding="false"/>
        </row>
        <row _address="https://data.cityofchicago.org/resource/bbyy-e7gq/621" _id="250373" _position="250373"
             _uuid="36ECBB94-B006-49AA-966B-9A260DF611BA">
            <id>621</id>
            <station_name>Aberdeen St &amp; Randolph St</station_name>
            <address>Aberdeen St &amp; Randolph St</address>
            <total_docks>15</total_docks>
            <docks_in_service>15</docks_in_service>
            <status>In Service</status>
            <latitude>41.884114</latitude>
            <longitude>-87.654264</longitude>
            <location
                    human_address="{&quot;address&quot;:&quot;&quot;,&quot;city&quot;:&quot;&quot;,&quot;state&quot;:&quot;&quot;,&quot;zip&quot;:&quot;&quot;}"
                    latitude="41.884114" longitude="-87.654264" needs_recoding="false"/>
        </row>
        <row _address="https://data.cityofchicago.org/resource/bbyy-e7gq/657" _id="250381" _position="250381"
             _uuid="FD332198-A8F6-4A2F-B273-0AE7EBE1E118">
            <id>657</id>
            <station_name>Wood St &amp; Augusta Blvd</station_name>
            <address>Wood St &amp; Augusta Blvd</address>
            <total_docks>15</total_docks>
            <docks_in_service>15</docks_in_service>
            <status>In Service</status>
            <latitude>41.899181</latitude>
            <longitude>-87.6722</longitude>
            <location
                    human_address="{&quot;address&quot;:&quot;&quot;,&quot;city&quot;:&quot;&quot;,&quot;state&quot;:&quot;&quot;,&quot;zip&quot;:&quot;&quot;}"
                    latitude="41.899181" longitude="-87.6722" needs_recoding="false"/>
        </row>
        <row _address="https://data.cityofchicago.org/resource/bbyy-e7gq/659" _id="250382" _position="250382"
             _uuid="C89CC259-DB0D-4817-B410-027D8034FB44">
            <id>659</id>
            <station_name>Leavitt St &amp; Chicago Ave</station_name>
            <address>Leavitt St &amp; Chicago Ave</address>
            <total_docks>15</total_docks>
            <docks_in_service>14</docks_in_service>
            <status>In Service</status>
            <latitude>41.895501</latitude>
            <longitude>-87.682017</longitude>
            <location
                    human_address="{&quot;address&quot;:&quot;&quot;,&quot;city&quot;:&quot;&quot;,&quot;state&quot;:&quot;&quot;,&quot;zip&quot;:&quot;&quot;}"
                    latitude="41.895501" longitude="-87.682017" needs_recoding="false"/>
        </row>
        <row _address="https://data.cityofchicago.org/resource/bbyy-e7gq/59" _id="249830" _position="249830"
             _uuid="5C45C847-4812-4129-BACD-29FEDE3A3C38">
            <id>59</id>
            <station_name>Wabash Ave &amp; Roosevelt Rd</station_name>
            <address>1210 S Wabash Ave</address>
            <total_docks>23</total_docks>
            <docks_in_service>22</docks_in_service>
            <status>In Service</status>
            <latitude>41.867227</latitude>
            <longitude>-87.625961</longitude>
            <location
                    human_address="{&quot;address&quot;:&quot;&quot;,&quot;city&quot;:&quot;&quot;,&quot;state&quot;:&quot;&quot;,&quot;zip&quot;:&quot;&quot;}"
                    latitude="41.867227" longitude="-87.625961" needs_recoding="false"/>
        </row>
        <row _address="https://data.cityofchicago.org/resource/bbyy-e7gq/366" _id="250112" _position="250112"
             _uuid="83810EB0-5A46-4C32-9C5D-37042156BD46">
            <id>366</id>
            <station_name>Loomis St &amp; Archer Ave</station_name>
            <address>Loomis St &amp; Archer Ave</address>
            <total_docks>11</total_docks>
            <docks_in_service>11</docks_in_service>
            <status>In Service</status>
            <latitude>41.84163254</latitude>
            <longitude>-87.657434953</longitude>
            <location
                    human_address="{&quot;address&quot;:&quot;&quot;,&quot;city&quot;:&quot;&quot;,&quot;state&quot;:&quot;&quot;,&quot;zip&quot;:&quot;&quot;}"
                    latitude="41.84163253965" longitude="-87.6574349533" needs_recoding="false"/>
        </row>
        <row _address="https://data.cityofchicago.org/resource/bbyy-e7gq/556" _id="250378" _position="250378"
             _uuid="EBEAF1BD-3983-4781-9BB0-CC7E0D6C7C95">
            <id>556</id>
            <station_name>Throop St &amp; 52nd St</station_name>
            <address>Throop St &amp; 52nd St</address>
            <total_docks>7</total_docks>
            <docks_in_service>7</docks_in_service>
            <status>In Service</status>
            <latitude>41.799659</latitude>
            <longitude>-87.657195</longitude>
            <location
                    human_address="{&quot;address&quot;:&quot;&quot;,&quot;city&quot;:&quot;&quot;,&quot;state&quot;:&quot;&quot;,&quot;zip&quot;:&quot;&quot;}"
                    latitude="41.799659" longitude="-87.657195" needs_recoding="false"/>
        </row>
        <row _address="https://data.cityofchicago.org/resource/bbyy-e7gq/193" _id="250366" _position="250366"
             _uuid="4F77478D-90E9-4608-8181-8155C845F84C">
            <id>193</id>
            <station_name>State St &amp; 29th St</station_name>
            <address>State St &amp; 29th St</address>
            <total_docks>11</total_docks>
            <docks_in_service>11</docks_in_service>
            <status>In Service</status>
            <latitude>41.841707</latitude>
            <longitude>-87.626938</longitude>
            <location
                    human_address="{&quot;address&quot;:&quot;&quot;,&quot;city&quot;:&quot;&quot;,&quot;state&quot;:&quot;&quot;,&quot;zip&quot;:&quot;&quot;}"
                    latitude="41.841707" longitude="-87.626938" needs_recoding="false"/>
        </row>
        <row _address="https://data.cityofchicago.org/resource/bbyy-e7gq/398" _id="250367" _position="250367"
             _uuid="31C2AF56-F00B-4DDE-918E-AE4C7E26F5F2">
            <id>398</id>
            <station_name>Rainbow Beach</station_name>
            <address>Rainbow Beach</address>
            <total_docks>15</total_docks>
            <docks_in_service>15</docks_in_service>
            <status>In Service</status>
            <latitude>41.757871448</latitude>
            <longitude>-87.54938625</longitude>
            <location
                    human_address="{&quot;address&quot;:&quot;&quot;,&quot;city&quot;:&quot;&quot;,&quot;state&quot;:&quot;&quot;,&quot;zip&quot;:&quot;&quot;}"
                    latitude="41.75787144829" longitude="-87.54938625" needs_recoding="false"/>
        </row>
        <row _address="https://data.cityofchicago.org/resource/bbyy-e7gq/392" _id="250369" _position="250369"
             _uuid="A9168D10-AA2A-4070-B4E5-EFBB4B800486">
            <id>392</id>
            <station_name>Perry Ave &amp; 69th St</station_name>
            <address>Perry Ave &amp; 69th St</address>
            <total_docks>11</total_docks>
            <docks_in_service>11</docks_in_service>
            <status>In Service</status>
            <latitude>41.76929309</latitude>
            <longitude>-87.628195929</longitude>
            <location
                    human_address="{&quot;address&quot;:&quot;&quot;,&quot;city&quot;:&quot;&quot;,&quot;state&quot;:&quot;&quot;,&quot;zip&quot;:&quot;&quot;}"
                    latitude="41.76929308995" longitude="-87.6281959291" needs_recoding="false"/>
        </row>
        <row _address="https://data.cityofchicago.org/resource/bbyy-e7gq/622" _id="250362" _position="250362"
             _uuid="EA5E1F0B-9C75-4B49-B63B-B431FA17F7EE">
            <id>622</id>
            <station_name>California Ave &amp; Cortez St</station_name>
            <address>California Ave &amp; Cortez St</address>
            <total_docks>15</total_docks>
            <docks_in_service>15</docks_in_service>
            <status>In Service</status>
            <latitude>41.900363</latitude>
            <longitude>-87.696704</longitude>
            <location
                    human_address="{&quot;address&quot;:&quot;&quot;,&quot;city&quot;:&quot;&quot;,&quot;state&quot;:&quot;&quot;,&quot;zip&quot;:&quot;&quot;}"
                    latitude="41.900363" longitude="-87.696704" needs_recoding="false"/>
        </row>
        <row _address="https://data.cityofchicago.org/resource/bbyy-e7gq/32" _id="249803" _position="249803"
             _uuid="A9741CAF-42B6-45FA-BAF5-CFA0A958D914">
            <id>32</id>
            <station_name>Racine Ave &amp; Congress Pkwy</station_name>
            <address>550 S. Racine</address>
            <total_docks>19</total_docks>
            <docks_in_service>19</docks_in_service>
            <status>In Service</status>
            <latitude>41.87464</latitude>
            <longitude>-87.65703</longitude>
            <location
                    human_address="{&quot;address&quot;:&quot;&quot;,&quot;city&quot;:&quot;&quot;,&quot;state&quot;:&quot;&quot;,&quot;zip&quot;:&quot;&quot;}"
                    latitude="41.87464" longitude="-87.65703" needs_recoding="false"/>
        </row>
        <row _address="https://data.cityofchicago.org/resource/bbyy-e7gq/586" _id="250346" _position="250346"
             _uuid="57DA155A-F0BC-4DF3-AF29-03354F9DF22B">
            <id>586</id>
            <station_name>MLK Jr Dr &amp; 83rd St</station_name>
            <address>MLK Jr Dr &amp; 83rd St</address>
            <total_docks>11</total_docks>
            <docks_in_service>11</docks_in_service>
            <status>In Service</status>
            <latitude>41.743116</latitude>
            <longitude>-87.6148</longitude>
            <location
                    human_address="{&quot;address&quot;:&quot;&quot;,&quot;city&quot;:&quot;&quot;,&quot;state&quot;:&quot;&quot;,&quot;zip&quot;:&quot;&quot;}"
                    latitude="41.743116" longitude="-87.6148" needs_recoding="false"/>
        </row>
        <row _address="https://data.cityofchicago.org/resource/bbyy-e7gq/89" _id="250372" _position="250372"
             _uuid="375816A6-39C6-4DF4-ADC7-BDFFE8FC8587">
            <id>89</id>
            <station_name>Financial Pl &amp; Congress Pkwy (Temp)</station_name>
            <address>Financial Pl &amp; Congress Pkwy (Temp)</address>
            <total_docks>15</total_docks>
            <docks_in_service>15</docks_in_service>
            <status>In Service</status>
            <latitude>41.874618</latitude>
            <longitude>-87.632882</longitude>
            <location
                    human_address="{&quot;address&quot;:&quot;&quot;,&quot;city&quot;:&quot;&quot;,&quot;state&quot;:&quot;&quot;,&quot;zip&quot;:&quot;&quot;}"
                    latitude="41.874618" longitude="-87.632882" needs_recoding="false"/>
        </row>
        <row _address="https://data.cityofchicago.org/resource/bbyy-e7gq/624" _id="250364" _position="250364"
             _uuid="FB982EAB-0F91-4FB1-B6B2-1C2EC7F48788">
            <id>624</id>
            <station_name>Dearborn St &amp; Van Buren St (*)</station_name>
            <address>417 S Dearborn St</address>
            <total_docks>16</total_docks>
            <docks_in_service>16</docks_in_service>
            <status>In Service</status>
            <latitude>41.876268</latitude>
            <longitude>-87.629155</longitude>
            <location
                    human_address="{&quot;address&quot;:&quot;&quot;,&quot;city&quot;:&quot;&quot;,&quot;state&quot;:&quot;&quot;,&quot;zip&quot;:&quot;&quot;}"
                    latitude="41.876268" longitude="-87.629155" needs_recoding="false"/>
        </row>
        <row _address="https://data.cityofchicago.org/resource/bbyy-e7gq/429" _id="250168" _position="250168"
             _uuid="E534C45B-90E9-43C4-AAC2-0E37CA95FCDA">
            <id>429</id>
            <station_name>Cottage Grove Ave &amp; 67th St</station_name>
            <address>Cottage Grove Ave &amp; 67th St</address>
            <total_docks>11</total_docks>
            <docks_in_service>11</docks_in_service>
            <status>In Service</status>
            <latitude>41.773720952</latitude>
            <longitude>-87.60563486</longitude>
            <location
                    human_address="{&quot;address&quot;:&quot;&quot;,&quot;city&quot;:&quot;&quot;,&quot;state&quot;:&quot;&quot;,&quot;zip&quot;:&quot;&quot;}"
                    latitude="41.77372095205" longitude="-87.60563486" needs_recoding="false"/>
        </row>
        <row _address="https://data.cityofchicago.org/resource/bbyy-e7gq/137" _id="249898" _position="249898"
             _uuid="15836983-59E2-4011-ACFF-677326FB1510">
            <id>137</id>
            <station_name>Morgan Ave &amp; 14th Pl</station_name>
            <address>Morgan Ave &amp; 14th Pl</address>
            <total_docks>15</total_docks>
            <docks_in_service>15</docks_in_service>
            <status>In Service</status>
            <latitude>41.862378</latitude>
            <longitude>-87.651062</longitude>
            <location
                    human_address="{&quot;address&quot;:&quot;&quot;,&quot;city&quot;:&quot;&quot;,&quot;state&quot;:&quot;&quot;,&quot;zip&quot;:&quot;&quot;}"
                    latitude="41.862378" longitude="-87.651062" needs_recoding="false"/>
        </row>
        <row _address="https://data.cityofchicago.org/resource/bbyy-e7gq/97" _id="249860" _position="249860"
             _uuid="17267BB3-EA2C-4B3C-A827-B1C43E91D3ED">
            <id>97</id>
            <station_name>Field Museum</station_name>
            <address>Off Street</address>
            <total_docks>55</total_docks>
            <docks_in_service>55</docks_in_service>
            <status>In Service</status>
            <latitude>41.865312</latitude>
            <longitude>-87.617867</longitude>
            <location
                    human_address="{&quot;address&quot;:&quot;&quot;,&quot;city&quot;:&quot;&quot;,&quot;state&quot;:&quot;&quot;,&quot;zip&quot;:&quot;&quot;}"
                    latitude="41.865312" longitude="-87.617867" needs_recoding="false"/>
        </row>
        <row _address="https://data.cityofchicago.org/resource/bbyy-e7gq/663" _id="250407" _position="250407"
             _uuid="022955F8-1F0A-4079-AA92-9068AF1D2679">
            <id>663</id>
            <station_name>Lincolnwood Dr &amp; Central St</station_name>
            <address>Lincolnwood Dr &amp; Central St</address>
            <total_docks>15</total_docks>
            <docks_in_service>14</docks_in_service>
            <status>In Service</status>
            <latitude>42.064854</latitude>
            <longitude>-87.715297</longitude>
            <location
                    human_address="{&quot;address&quot;:&quot;&quot;,&quot;city&quot;:&quot;&quot;,&quot;state&quot;:&quot;&quot;,&quot;zip&quot;:&quot;&quot;}"
                    latitude="42.064854" longitude="-87.715297" needs_recoding="false"/>
        </row>
        <row _address="https://data.cityofchicago.org/resource/bbyy-e7gq/308" _id="250060" _position="250060"
             _uuid="EA2D7A0C-FF75-456D-8D5C-70BDD40FBDC3">
            <id>308</id>
            <station_name>Seeley Ave &amp; Roscoe St</station_name>
            <address>Seeley Ave &amp; Roscoe St</address>
            <total_docks>11</total_docks>
            <docks_in_service>11</docks_in_service>
            <status>In Service</status>
            <latitude>41.943403</latitude>
            <longitude>-87.679618</longitude>
            <location
                    human_address="{&quot;address&quot;:&quot;&quot;,&quot;city&quot;:&quot;&quot;,&quot;state&quot;:&quot;&quot;,&quot;zip&quot;:&quot;&quot;}"
                    latitude="41.943403" longitude="-87.679618" needs_recoding="false"/>
        </row>
        <row _address="https://data.cityofchicago.org/resource/bbyy-e7gq/627" _id="250371" _position="250371"
             _uuid="8F59A15B-FB64-4B08-BBED-6F8207401D82">
            <id>627</id>
            <station_name>LaSalle Dr &amp; Huron St (*)</station_name>
            <address>LaSalle Dr &amp; Huron St(*)</address>
            <total_docks>20</total_docks>
            <docks_in_service>20</docks_in_service>
            <status>In Service</status>
            <latitude>41.894877</latitude>
            <longitude>-87.632326</longitude>
            <location
                    human_address="{&quot;address&quot;:&quot;&quot;,&quot;city&quot;:&quot;&quot;,&quot;state&quot;:&quot;&quot;,&quot;zip&quot;:&quot;&quot;}"
                    latitude="41.894877" longitude="-87.632326" needs_recoding="false"/>
        </row>
        <row _address="https://data.cityofchicago.org/resource/bbyy-e7gq/99" _id="249862" _position="249862"
             _uuid="10ADC7A7-E15A-4FD9-858F-1CCA9D6194A5">
            <id>99</id>
            <station_name>Lake Shore Dr &amp; Ohio St</station_name>
            <address>Lake Shore Dr &amp; Ohio St</address>
            <total_docks>19</total_docks>
            <docks_in_service>19</docks_in_service>
            <status>In Service</status>
            <latitude>41.89257</latitude>
            <longitude>-87.614492</longitude>
            <location
                    human_address="{&quot;address&quot;:&quot;&quot;,&quot;city&quot;:&quot;&quot;,&quot;state&quot;:&quot;&quot;,&quot;zip&quot;:&quot;&quot;}"
                    latitude="41.89257" longitude="-87.614492" needs_recoding="false"/>
        </row>
        <row _address="https://data.cityofchicago.org/resource/bbyy-e7gq/435" _id="250174" _position="250174"
             _uuid="81CC6BFA-6760-442E-9813-DCF730480F21">
            <id>435</id>
            <station_name>Kedzie Ave &amp; Roosevelt Rd</station_name>
            <address>Kedzie Ave &amp; Roosevelt Rd</address>
            <total_docks>11</total_docks>
            <docks_in_service>11</docks_in_service>
            <status>In Service</status>
            <latitude>41.866492782</latitude>
            <longitude>-87.706496176</longitude>
            <location
                    human_address="{&quot;address&quot;:&quot;&quot;,&quot;city&quot;:&quot;&quot;,&quot;state&quot;:&quot;&quot;,&quot;zip&quot;:&quot;&quot;}"
                    latitude="41.86649278172" longitude="-87.7064961757" needs_recoding="false"/>
        </row>
        <row _address="https://data.cityofchicago.org/resource/bbyy-e7gq/214" _id="249970" _position="249970"
             _uuid="D9CB3DA4-4E60-484C-8D9B-8742B95352B1">
            <id>214</id>
            <station_name>Damen Ave &amp; Grand Ave</station_name>
            <address>Damen Ave &amp; Grand Ave</address>
            <total_docks>23</total_docks>
            <docks_in_service>23</docks_in_service>
            <status>In Service</status>
            <latitude>41.89122</latitude>
            <longitude>-87.67686</longitude>
            <location
                    human_address="{&quot;address&quot;:&quot;&quot;,&quot;city&quot;:&quot;&quot;,&quot;state&quot;:&quot;&quot;,&quot;zip&quot;:&quot;&quot;}"
                    latitude="41.89122" longitude="-87.67686" needs_recoding="false"/>
        </row>
        <row _address="https://data.cityofchicago.org/resource/bbyy-e7gq/623" _id="250363" _position="250363"
             _uuid="9F6B6F2A-5EE1-43C8-A3AC-537AD948FD8C">
            <id>623</id>
            <station_name>Michigan Ave &amp; 8th St</station_name>
            <address>Michigan Ave &amp; 8th St</address>
            <total_docks>43</total_docks>
            <docks_in_service>42</docks_in_service>
            <status>In Service</status>
            <latitude>41.872773</latitude>
            <longitude>-87.623981</longitude>
            <location
                    human_address="{&quot;address&quot;:&quot;&quot;,&quot;city&quot;:&quot;&quot;,&quot;state&quot;:&quot;&quot;,&quot;zip&quot;:&quot;&quot;}"
                    latitude="41.872773" longitude="-87.623981" needs_recoding="false"/>
        </row>
        <row _address="https://data.cityofchicago.org/resource/bbyy-e7gq/319" _id="250071" _position="250071"
             _uuid="5189D8BE-FA5A-4321-AB8E-279F16ED89E2">
            <id>319</id>
            <station_name>Greenview Ave &amp; Diversey Pkwy</station_name>
            <address>Greenview Ave &amp; Diversey Pkwy</address>
            <total_docks>15</total_docks>
            <docks_in_service>14</docks_in_service>
            <status>In Service</status>
            <latitude>41.932595</latitude>
            <longitude>-87.665939</longitude>
            <location
                    human_address="{&quot;address&quot;:&quot;&quot;,&quot;city&quot;:&quot;&quot;,&quot;state&quot;:&quot;&quot;,&quot;zip&quot;:&quot;&quot;}"
                    latitude="41.932595" longitude="-87.665939" needs_recoding="false"/>
        </row>
        <row _address="https://data.cityofchicago.org/resource/bbyy-e7gq/6" _id="249779" _position="249779"
             _uuid="A96AA0F9-EAA9-494D-94C2-D12A131686A6">
            <id>6</id>
            <station_name>Dusable Harbor</station_name>
            <address>Dusable Harbor</address>
            <total_docks>39</total_docks>
            <docks_in_service>38</docks_in_service>
            <status>In Service</status>
            <latitude>41.886976</latitude>
            <longitude>-87.612813</longitude>
            <location
                    human_address="{&quot;address&quot;:&quot;&quot;,&quot;city&quot;:&quot;&quot;,&quot;state&quot;:&quot;&quot;,&quot;zip&quot;:&quot;&quot;}"
                    latitude="41.886976" longitude="-87.612813" needs_recoding="false"/>
        </row>
        <row _address="https://data.cityofchicago.org/resource/bbyy-e7gq/563" _id="250284" _position="250284"
             _uuid="0C8A45B6-8DE5-400E-BDC9-97DB8234CB77">
            <id>563</id>
            <station_name>Ashland Ave &amp; 63rd St</station_name>
            <address>Ashland Ave &amp; 63rd St</address>
            <total_docks>11</total_docks>
            <docks_in_service>11</docks_in_service>
            <status>In Service</status>
            <latitude>41.779374</latitude>
            <longitude>-87.664843</longitude>
            <location
                    human_address="{&quot;address&quot;:&quot;&quot;,&quot;city&quot;:&quot;&quot;,&quot;state&quot;:&quot;&quot;,&quot;zip&quot;:&quot;&quot;}"
                    latitude="41.779374" longitude="-87.664843" needs_recoding="false"/>
        </row>
        <row _address="https://data.cityofchicago.org/resource/bbyy-e7gq/587" _id="250353" _position="250353"
             _uuid="FE3C7752-DA48-4A28-B6E4-BE158C96ADCA">
            <id>587</id>
            <station_name>Wabash Ave &amp; 83rd St</station_name>
            <address>Wabash Ave &amp; 83rd St</address>
            <total_docks>11</total_docks>
            <docks_in_service>11</docks_in_service>
            <status>In Service</status>
            <latitude>41.743316</latitude>
            <longitude>-87.622849</longitude>
            <location
                    human_address="{&quot;address&quot;:&quot;&quot;,&quot;city&quot;:&quot;&quot;,&quot;state&quot;:&quot;&quot;,&quot;zip&quot;:&quot;&quot;}"
                    latitude="41.743316" longitude="-87.622849" needs_recoding="false"/>
        </row>
        <row _address="https://data.cityofchicago.org/resource/bbyy-e7gq/27" _id="249798" _position="249798"
             _uuid="D4CE2D32-AF30-43AB-A37C-01F7DB17A43A">
            <id>27</id>
            <station_name>Larrabee St &amp; North Ave</station_name>
            <address>1530 N.Larrabee st</address>
            <total_docks>19</total_docks>
            <docks_in_service>19</docks_in_service>
            <status>In Service</status>
            <latitude>41.91021</latitude>
            <longitude>-87.6435</longitude>
            <location
                    human_address="{&quot;address&quot;:&quot;&quot;,&quot;city&quot;:&quot;&quot;,&quot;state&quot;:&quot;&quot;,&quot;zip&quot;:&quot;&quot;}"
                    latitude="41.91021" longitude="-87.6435" needs_recoding="false"/>
        </row>
        <row _address="https://data.cityofchicago.org/resource/bbyy-e7gq/537" _id="250254" _position="250254"
             _uuid="D2BC9F86-E7BE-43AD-BF83-5CAE9CE6A01F">
            <id>537</id>
            <station_name>Kenton Ave &amp; Madison St</station_name>
            <address>Kenton Ave &amp; Madison St</address>
            <total_docks>11</total_docks>
            <docks_in_service>11</docks_in_service>
            <status>In Service</status>
            <latitude>41.880708</latitude>
            <longitude>-87.741018</longitude>
            <location
                    human_address="{&quot;address&quot;:&quot;&quot;,&quot;city&quot;:&quot;&quot;,&quot;state&quot;:&quot;&quot;,&quot;zip&quot;:&quot;&quot;}"
                    latitude="41.880708" longitude="-87.741018" needs_recoding="false"/>
        </row>
        <row _address="https://data.cityofchicago.org/resource/bbyy-e7gq/642" _id="250409" _position="250409"
             _uuid="DF216722-96D7-40EC-949E-10982D0A6010">
            <id>642</id>
            <station_name>Latrobe Ave &amp; Chicago Ave</station_name>
            <address>Latrobe Ave &amp; Chicago Ave</address>
            <total_docks>7</total_docks>
            <docks_in_service>7</docks_in_service>
            <status>In Service</status>
            <latitude>41.894745</latitude>
            <longitude>-87.756895</longitude>
            <location
                    human_address="{&quot;address&quot;:&quot;&quot;,&quot;city&quot;:&quot;&quot;,&quot;state&quot;:&quot;&quot;,&quot;zip&quot;:&quot;&quot;}"
                    latitude="41.894745" longitude="-87.756895" needs_recoding="false"/>
        </row>
        <row _address="https://data.cityofchicago.org/resource/bbyy-e7gq/582" _id="250375" _position="250375"
             _uuid="8B3BFD09-4AA9-4F47-B9E7-1A7902948B2D">
            <id>582</id>
            <station_name>Phillips Ave &amp; 83rd St</station_name>
            <address>On-Street</address>
            <total_docks>11</total_docks>
            <docks_in_service>11</docks_in_service>
            <status>In Service</status>
            <latitude>41.744531</latitude>
            <longitude>-87.56506</longitude>
            <location
                    human_address="{&quot;address&quot;:&quot;&quot;,&quot;city&quot;:&quot;&quot;,&quot;state&quot;:&quot;&quot;,&quot;zip&quot;:&quot;&quot;}"
                    latitude="41.744531" longitude="-87.56506" needs_recoding="false"/>
        </row>
        <row _address="https://data.cityofchicago.org/resource/bbyy-e7gq/631" _id="250379" _position="250379"
             _uuid="11AA229E-0EAC-40A4-9EDE-8C30BA1A18BB">
            <id>631</id>
            <station_name>Malcolm X College</station_name>
            <address>Malcolm X College</address>
            <total_docks>19</total_docks>
            <docks_in_service>19</docks_in_service>
            <status>In Service</status>
            <latitude>41.877618</latitude>
            <longitude>-87.673895</longitude>
            <location
                    human_address="{&quot;address&quot;:&quot;&quot;,&quot;city&quot;:&quot;&quot;,&quot;state&quot;:&quot;&quot;,&quot;zip&quot;:&quot;&quot;}"
                    latitude="41.877618" longitude="-87.673895" needs_recoding="false"/>
        </row>
        <row _address="https://data.cityofchicago.org/resource/bbyy-e7gq/108" _id="249869" _position="249869"
             _uuid="DCF32BA1-0F21-4AC3-A387-0317EA272ADB">
            <id>108</id>
            <station_name>Halsted St &amp; Polk St</station_name>
            <address>Halsted St &amp; Polk St</address>
            <total_docks>19</total_docks>
            <docks_in_service>19</docks_in_service>
            <status>In Service</status>
            <latitude>41.87184</latitude>
            <longitude>-87.64664</longitude>
            <location
                    human_address="{&quot;address&quot;:&quot;&quot;,&quot;city&quot;:&quot;&quot;,&quot;state&quot;:&quot;&quot;,&quot;zip&quot;:&quot;&quot;}"
                    latitude="41.87184" longitude="-87.64664" needs_recoding="false"/>
        </row>
        <row _address="https://data.cityofchicago.org/resource/bbyy-e7gq/3" _id="249776" _position="249776"
             _uuid="A4421694-B280-425B-A35E-70737606258A">
            <id>3</id>
            <station_name>Shedd Aquarium</station_name>
            <address>Shedd Aquarium</address>
            <total_docks>55</total_docks>
            <docks_in_service>55</docks_in_service>
            <status>In Service</status>
            <latitude>41.867225957</latitude>
            <longitude>-87.61535539</longitude>
            <location
                    human_address="{&quot;address&quot;:&quot;&quot;,&quot;city&quot;:&quot;&quot;,&quot;state&quot;:&quot;&quot;,&quot;zip&quot;:&quot;&quot;}"
                    latitude="41.86722595682" longitude="-87.6153553902" needs_recoding="false"/>
        </row>
        <row _address="https://data.cityofchicago.org/resource/bbyy-e7gq/529" _id="250251" _position="250251"
             _uuid="E65BBE8F-7888-4328-AC85-9BD1118092AA">
            <id>529</id>
            <station_name>Cicero Ave &amp; Lake St</station_name>
            <address>Cicero Ave &amp; Lake St</address>
            <total_docks>11</total_docks>
            <docks_in_service>11</docks_in_service>
            <status>In Service</status>
            <latitude>41.886841</latitude>
            <longitude>-87.745261</longitude>
            <location
                    human_address="{&quot;address&quot;:&quot;&quot;,&quot;city&quot;:&quot;&quot;,&quot;state&quot;:&quot;&quot;,&quot;zip&quot;:&quot;&quot;}"
                    latitude="41.886841" longitude="-87.745261" needs_recoding="false"/>
        </row>
        <row _address="https://data.cityofchicago.org/resource/bbyy-e7gq/636" _id="250384" _position="250384"
             _uuid="45B9F1A4-7D5F-4806-B19E-E884A80091F9">
            <id>636</id>
            <station_name>Orleans St &amp; Hubbard St (*)</station_name>
            <address>Orleans St &amp; Hubbard St (*)</address>
            <total_docks>12</total_docks>
            <docks_in_service>12</docks_in_service>
            <status>In Service</status>
            <latitude>41.890028</latitude>
            <longitude>-87.636618</longitude>
            <location
                    human_address="{&quot;address&quot;:&quot;&quot;,&quot;city&quot;:&quot;&quot;,&quot;state&quot;:&quot;&quot;,&quot;zip&quot;:&quot;&quot;}"
                    latitude="41.890028" longitude="-87.636618" needs_recoding="false"/>
        </row>
        <row _address="https://data.cityofchicago.org/resource/bbyy-e7gq/28" _id="249799" _position="249799"
             _uuid="3AB2ABB9-573C-475D-BDA7-CA2FD6D8B5F9">
            <id>28</id>
            <station_name>Larrabee St &amp; Menomonee St</station_name>
            <address>590 W. Menomonee</address>
            <total_docks>15</total_docks>
            <docks_in_service>15</docks_in_service>
            <status>In Service</status>
            <latitude>41.91468</latitude>
            <longitude>-87.64332</longitude>
            <location
                    human_address="{&quot;address&quot;:&quot;&quot;,&quot;city&quot;:&quot;&quot;,&quot;state&quot;:&quot;&quot;,&quot;zip&quot;:&quot;&quot;}"
                    latitude="41.91468" longitude="-87.64332" needs_recoding="false"/>
        </row>
        <row _address="https://data.cityofchicago.org/resource/bbyy-e7gq/632" _id="250408" _position="250408"
             _uuid="27B941B3-BA45-45BC-9A9F-D3F79FF7C31E">
            <id>632</id>
            <station_name>Clark St &amp; Newport St</station_name>
            <address>Clark St &amp; Newport St</address>
            <total_docks>15</total_docks>
            <docks_in_service>15</docks_in_service>
            <status>In Service</status>
            <latitude>41.94454</latitude>
            <longitude>-87.654678</longitude>
            <location
                    human_address="{&quot;address&quot;:&quot;&quot;,&quot;city&quot;:&quot;&quot;,&quot;state&quot;:&quot;&quot;,&quot;zip&quot;:&quot;&quot;}"
                    latitude="41.94454" longitude="-87.654678" needs_recoding="false"/>
        </row>
        <row _address="https://data.cityofchicago.org/resource/bbyy-e7gq/628" _id="250383" _position="250383"
             _uuid="EB6937C4-47AF-461B-AEB7-A9982419B485">
            <id>628</id>
            <station_name>Walsh Park</station_name>
            <address>Off-Street</address>
            <total_docks>23</total_docks>
            <docks_in_service>22</docks_in_service>
            <status>In Service</status>
            <latitude>41.91461</latitude>
            <longitude>-87.667968</longitude>
            <location
                    human_address="{&quot;address&quot;:&quot;&quot;,&quot;city&quot;:&quot;&quot;,&quot;state&quot;:&quot;&quot;,&quot;zip&quot;:&quot;&quot;}"
                    latitude="41.91461" longitude="-87.667968" needs_recoding="false"/>
        </row>
        <row _address="https://data.cityofchicago.org/resource/bbyy-e7gq/285" _id="250037" _position="250037"
             _uuid="0CBE40CA-7C14-4F1E-8BE9-054EF1742803">
            <id>285</id>
            <station_name>Wood St &amp; Hubbard St</station_name>
            <address>Off Street</address>
            <total_docks>19</total_docks>
            <docks_in_service>19</docks_in_service>
            <status>In Service</status>
            <latitude>41.889587</latitude>
            <longitude>-87.671956</longitude>
            <location
                    human_address="{&quot;address&quot;:&quot;&quot;,&quot;city&quot;:&quot;&quot;,&quot;state&quot;:&quot;&quot;,&quot;zip&quot;:&quot;&quot;}"
                    latitude="41.889587" longitude="-87.671956" needs_recoding="false"/>
        </row>
        <row _address="https://data.cityofchicago.org/resource/bbyy-e7gq/350" _id="250102" _position="250102"
             _uuid="EE4B6F7E-7CB2-450F-8DA2-841035A65B3B">
            <id>350</id>
            <station_name>Ashland Ave &amp; Chicago Ave</station_name>
            <address>Ashland Ave &amp; Chicago Ave</address>
            <total_docks>15</total_docks>
            <docks_in_service>15</docks_in_service>
            <status>In Service</status>
            <latitude>41.895966</latitude>
            <longitude>-87.667747</longitude>
            <location
                    human_address="{&quot;address&quot;:&quot;&quot;,&quot;city&quot;:&quot;&quot;,&quot;state&quot;:&quot;&quot;,&quot;zip&quot;:&quot;&quot;}"
                    latitude="41.895966" longitude="-87.667747" needs_recoding="false"/>
        </row>
        <row _address="https://data.cityofchicago.org/resource/bbyy-e7gq/635" _id="250386" _position="250386"
             _uuid="05035B73-DDEE-49B6-959A-8C5B762B6016">
            <id>635</id>
            <station_name>Fairbanks St &amp; Superior St (*)</station_name>
            <address>Fairbanks St &amp; Superior St (*)</address>
            <total_docks>12</total_docks>
            <docks_in_service>11</docks_in_service>
            <status>In Service</status>
            <latitude>41.895748</latitude>
            <longitude>-87.620104</longitude>
            <location
                    human_address="{&quot;address&quot;:&quot;&quot;,&quot;city&quot;:&quot;&quot;,&quot;state&quot;:&quot;&quot;,&quot;zip&quot;:&quot;&quot;}"
                    latitude="41.895748" longitude="-87.620104" needs_recoding="false"/>
        </row>
        <row _address="https://data.cityofchicago.org/resource/bbyy-e7gq/630" _id="250380" _position="250380"
             _uuid="3F715B32-F291-401A-A188-9A74E2A18566">
            <id>630</id>
            <station_name>Kildare Ave &amp; Montrose Ave</station_name>
            <address>On-Street</address>
            <total_docks>15</total_docks>
            <docks_in_service>15</docks_in_service>
            <status>In Service</status>
            <latitude>41.96108</latitude>
            <longitude>-87.73569</longitude>
            <location
                    human_address="{&quot;address&quot;:&quot;&quot;,&quot;city&quot;:&quot;&quot;,&quot;state&quot;:&quot;&quot;,&quot;zip&quot;:&quot;&quot;}"
                    latitude="41.96108" longitude="-87.73569" needs_recoding="false"/>
        </row>
        <row _address="https://data.cityofchicago.org/resource/bbyy-e7gq/581" _id="250374" _position="250374"
             _uuid="7BE97DE0-DFCB-4203-A798-CA5D07A05343">
            <id>581</id>
            <station_name>Commercial Ave &amp; 83rd St</station_name>
            <address>Commercial Ave &amp; 83rd St</address>
            <total_docks>11</total_docks>
            <docks_in_service>11</docks_in_service>
            <status>In Service</status>
            <latitude>41.744615</latitude>
            <longitude>-87.551208</longitude>
            <location
                    human_address="{&quot;address&quot;:&quot;&quot;,&quot;city&quot;:&quot;&quot;,&quot;state&quot;:&quot;&quot;,&quot;zip&quot;:&quot;&quot;}"
                    latitude="41.744615" longitude="-87.551208" needs_recoding="false"/>
        </row>
        <row _address="https://data.cityofchicago.org/resource/bbyy-e7gq/491" _id="250229" _position="250229"
             _uuid="3E8AFDFD-DB5F-439D-8C69-9F37D7110100">
            <id>491</id>
            <station_name>Talman Ave &amp; Addison St</station_name>
            <address>Talman Ave &amp; Addison St</address>
            <total_docks>14</total_docks>
            <docks_in_service>14</docks_in_service>
            <status>In Service</status>
            <latitude>41.946635831</latitude>
            <longitude>-87.694614758</longitude>
            <location
                    human_address="{&quot;address&quot;:&quot;&quot;,&quot;city&quot;:&quot;&quot;,&quot;state&quot;:&quot;&quot;,&quot;zip&quot;:&quot;&quot;}"
                    latitude="41.9466358306" longitude="-87.694614758" needs_recoding="false"/>
        </row>
        <row _address="https://data.cityofchicago.org/resource/bbyy-e7gq/536" _id="250257" _position="250257"
             _uuid="76108522-D71D-45CB-BCD0-C934F6A5A720">
            <id>536</id>
            <station_name>Kostner Ave &amp; Lake St</station_name>
            <address>Kostner Ave &amp; Lake St</address>
            <total_docks>11</total_docks>
            <docks_in_service>11</docks_in_service>
            <status>In Service</status>
            <latitude>41.885928</latitude>
            <longitude>-87.73541</longitude>
            <location
                    human_address="{&quot;address&quot;:&quot;&quot;,&quot;city&quot;:&quot;&quot;,&quot;state&quot;:&quot;&quot;,&quot;zip&quot;:&quot;&quot;}"
                    latitude="41.885928" longitude="-87.73541" needs_recoding="false"/>
        </row>
        <row _address="https://data.cityofchicago.org/resource/bbyy-e7gq/502" _id="250240" _position="250240"
             _uuid="2DE1FA07-0107-4537-9DC3-804D5CE053C9">
            <id>502</id>
            <station_name>California Ave &amp; Altgeld St</station_name>
            <address>California Ave &amp; Altgeld St</address>
            <total_docks>15</total_docks>
            <docks_in_service>15</docks_in_service>
            <status>In Service</status>
            <latitude>41.92669</latitude>
            <longitude>-87.697668</longitude>
            <location
                    human_address="{&quot;address&quot;:&quot;&quot;,&quot;city&quot;:&quot;&quot;,&quot;state&quot;:&quot;&quot;,&quot;zip&quot;:&quot;&quot;}"
                    latitude="41.92669" longitude="-87.697668" needs_recoding="false"/>
        </row>
        <row _address="https://data.cityofchicago.org/resource/bbyy-e7gq/476" _id="250214" _position="250214"
             _uuid="B31E8088-43C1-40E1-A0A0-39E4160087B1">
            <id>476</id>
            <station_name>Kedzie Ave &amp; Leland Ave</station_name>
            <address>Kedzie Ave &amp; Leland Ave</address>
            <total_docks>15</total_docks>
            <docks_in_service>15</docks_in_service>
            <status>In Service</status>
            <latitude>41.966686362</latitude>
            <longitude>-87.708051981</longitude>
            <location
                    human_address="{&quot;address&quot;:&quot;&quot;,&quot;city&quot;:&quot;&quot;,&quot;state&quot;:&quot;&quot;,&quot;zip&quot;:&quot;&quot;}"
                    latitude="41.96668636205" longitude="-87.7080519806" needs_recoding="false"/>
        </row>
        <row _address="https://data.cityofchicago.org/resource/bbyy-e7gq/570" _id="250293" _position="250293"
             _uuid="315BB596-E463-4F60-B132-18C1BF850008">
            <id>570</id>
            <station_name>Evans Ave &amp; 75th St</station_name>
            <address>Evans Ave &amp; 75th St</address>
            <total_docks>11</total_docks>
            <docks_in_service>11</docks_in_service>
            <status>In Service</status>
            <latitude>41.758308</latitude>
            <longitude>-87.606685</longitude>
            <location
                    human_address="{&quot;address&quot;:&quot;&quot;,&quot;city&quot;:&quot;&quot;,&quot;state&quot;:&quot;&quot;,&quot;zip&quot;:&quot;&quot;}"
                    latitude="41.758308" longitude="-87.606685" needs_recoding="false"/>
        </row>
        <row _address="https://data.cityofchicago.org/resource/bbyy-e7gq/568" _id="250291" _position="250291"
             _uuid="D8EDA34D-12A2-4D42-BF5A-0F5965EB599C">
            <id>568</id>
            <station_name>Normal Ave &amp; 72nd St</station_name>
            <address>Normal Ave &amp; 72nd St</address>
            <total_docks>11</total_docks>
            <docks_in_service>10</docks_in_service>
            <status>In Service</status>
            <latitude>41.763462</latitude>
            <longitude>-87.637297</longitude>
            <location
                    human_address="{&quot;address&quot;:&quot;&quot;,&quot;city&quot;:&quot;&quot;,&quot;state&quot;:&quot;&quot;,&quot;zip&quot;:&quot;&quot;}"
                    latitude="41.763462" longitude="-87.637297" needs_recoding="false"/>
        </row>
        <row _address="https://data.cityofchicago.org/resource/bbyy-e7gq/114" _id="250358" _position="250358"
             _uuid="5A6C2FC0-31D9-4D1A-8155-33EF44439A44">
            <id>114</id>
            <station_name>Sheffield Ave &amp; Waveland Ave</station_name>
            <address>Sheffield Ave &amp; Waveland Ave</address>
            <total_docks>27</total_docks>
            <docks_in_service>26</docks_in_service>
            <status>In Service</status>
            <latitude>41.949399</latitude>
            <longitude>-87.654529</longitude>
            <location
                    human_address="{&quot;address&quot;:&quot;&quot;,&quot;city&quot;:&quot;&quot;,&quot;state&quot;:&quot;&quot;,&quot;zip&quot;:&quot;&quot;}"
                    latitude="41.949399" longitude="-87.654529" needs_recoding="false"/>
        </row>
        <row _address="https://data.cityofchicago.org/resource/bbyy-e7gq/530" _id="250255" _position="250255"
             _uuid="03804455-F8BD-4595-BF73-2BB8DEC6FC5D">
            <id>530</id>
            <station_name>Laramie Ave &amp; Kinzie St</station_name>
            <address>Laramie Ave &amp; Kinzie St</address>
            <total_docks>11</total_docks>
            <docks_in_service>11</docks_in_service>
            <status>In Service</status>
            <latitude>41.887832</latitude>
            <longitude>-87.755527</longitude>
            <location
                    human_address="{&quot;address&quot;:&quot;&quot;,&quot;city&quot;:&quot;&quot;,&quot;state&quot;:&quot;&quot;,&quot;zip&quot;:&quot;&quot;}"
                    latitude="41.887832" longitude="-87.755527" needs_recoding="false"/>
        </row>
        <row _address="https://data.cityofchicago.org/resource/bbyy-e7gq/534" _id="250256" _position="250256"
             _uuid="8638D91E-3282-4AE8-A0C6-5CACCF2A61B0">
            <id>534</id>
            <station_name>Karlov Ave &amp; Madison St</station_name>
            <address>Karlov Rd &amp; Madison St</address>
            <total_docks>11</total_docks>
            <docks_in_service>11</docks_in_service>
            <status>In Service</status>
            <latitude>41.88085</latitude>
            <longitude>-87.727907</longitude>
            <location
                    human_address="{&quot;address&quot;:&quot;&quot;,&quot;city&quot;:&quot;&quot;,&quot;state&quot;:&quot;&quot;,&quot;zip&quot;:&quot;&quot;}"
                    latitude="41.88085" longitude="-87.727907" needs_recoding="false"/>
        </row>
        <row _address="https://data.cityofchicago.org/resource/bbyy-e7gq/85" _id="250359" _position="250359"
             _uuid="E0F85043-7BE0-40BA-BFFF-48F99B0CC58F">
            <id>85</id>
            <station_name>Michigan Ave &amp; Oak St</station_name>
            <address>140 E Oak St</address>
            <total_docks>23</total_docks>
            <docks_in_service>23</docks_in_service>
            <status>In Service</status>
            <latitude>41.90096039</latitude>
            <longitude>-87.62377664</longitude>
            <location
                    human_address="{&quot;address&quot;:&quot;&quot;,&quot;city&quot;:&quot;&quot;,&quot;state&quot;:&quot;&quot;,&quot;zip&quot;:&quot;&quot;}"
                    latitude="41.90096039" longitude="-87.62377664" needs_recoding="false"/>
        </row>
        <row _address="https://data.cityofchicago.org/resource/bbyy-e7gq/115" _id="249876" _position="249876"
             _uuid="DFA4BC9A-0245-42D0-A656-D10506AB66F1">
            <id>115</id>
            <station_name>Sheffield Ave &amp; Wellington Ave</station_name>
            <address>Sheffield Ave &amp; Wellington Ave</address>
            <total_docks>21</total_docks>
            <docks_in_service>21</docks_in_service>
            <status>In Service</status>
            <latitude>41.936266</latitude>
            <longitude>-87.652662</longitude>
            <location
                    human_address="{&quot;address&quot;:&quot;&quot;,&quot;city&quot;:&quot;&quot;,&quot;state&quot;:&quot;&quot;,&quot;zip&quot;:&quot;&quot;}"
                    latitude="41.936266" longitude="-87.652662" needs_recoding="false"/>
        </row>
        <row _address="https://data.cityofchicago.org/resource/bbyy-e7gq/132" _id="249893" _position="249893"
             _uuid="C25B15B3-3A27-4CDD-9980-098F5ADC0969">
            <id>132</id>
            <station_name>Wentworth Ave &amp; 24th St</station_name>
            <address>Wentworth Ave &amp; 24th St</address>
            <total_docks>15</total_docks>
            <docks_in_service>15</docks_in_service>
            <status>In Service</status>
            <latitude>41.849237</latitude>
            <longitude>-87.631715</longitude>
            <location
                    human_address="{&quot;address&quot;:&quot;&quot;,&quot;city&quot;:&quot;&quot;,&quot;state&quot;:&quot;&quot;,&quot;zip&quot;:&quot;&quot;}"
                    latitude="41.849237" longitude="-87.631715" needs_recoding="false"/>
        </row>
        <row _address="https://data.cityofchicago.org/resource/bbyy-e7gq/94" _id="249857" _position="249857"
             _uuid="2156AEF8-631E-4174-A877-B8F57D421384">
            <id>94</id>
            <station_name>Clark St &amp; Armitage Ave</station_name>
            <address>Clark St &amp; Armitage Ave</address>
            <total_docks>31</total_docks>
            <docks_in_service>30</docks_in_service>
            <status>In Service</status>
            <latitude>41.918306</latitude>
            <longitude>-87.636282</longitude>
            <location
                    human_address="{&quot;address&quot;:&quot;&quot;,&quot;city&quot;:&quot;&quot;,&quot;state&quot;:&quot;&quot;,&quot;zip&quot;:&quot;&quot;}"
                    latitude="41.918306" longitude="-87.636282" needs_recoding="false"/>
        </row>
        <row _address="https://data.cityofchicago.org/resource/bbyy-e7gq/543" _id="250262" _position="250262"
             _uuid="A38EF58C-224D-4AEF-8A87-CCB6B65F7E71">
            <id>543</id>
            <station_name>Laramie Ave &amp; Gladys Ave</station_name>
            <address>Laramie Ave &amp; Gladys Ave</address>
            <total_docks>11</total_docks>
            <docks_in_service>11</docks_in_service>
            <status>In Service</status>
            <latitude>41.875806</latitude>
            <longitude>-87.755285</longitude>
            <location
                    human_address="{&quot;address&quot;:&quot;&quot;,&quot;city&quot;:&quot;&quot;,&quot;state&quot;:&quot;&quot;,&quot;zip&quot;:&quot;&quot;}"
                    latitude="41.875806" longitude="-87.755285" needs_recoding="false"/>
        </row>
        <row _address="https://data.cityofchicago.org/resource/bbyy-e7gq/654" _id="250399" _position="250399"
             _uuid="BB6BDA65-008E-4DBE-8A1B-CAF2F8F489CD">
            <id>654</id>
            <station_name>Racine Ave &amp; Washington Blvd (*)</station_name>
            <address>Racine Ave &amp; Washington Blvd (*)</address>
            <total_docks>12</total_docks>
            <docks_in_service>12</docks_in_service>
            <status>In Service</status>
            <latitude>41.883073</latitude>
            <longitude>-87.656952</longitude>
            <location
                    human_address="{&quot;address&quot;:&quot;&quot;,&quot;city&quot;:&quot;&quot;,&quot;state&quot;:&quot;&quot;,&quot;zip&quot;:&quot;&quot;}"
                    latitude="41.883073" longitude="-87.656952" needs_recoding="false"/>
        </row>
        <row _address="https://data.cityofchicago.org/resource/bbyy-e7gq/660" _id="250393" _position="250393"
             _uuid="BC293BFD-D94E-46F8-ADC6-7FC10F8DED35">
            <id>660</id>
            <station_name>Sheridan Rd &amp; Columbia Ave</station_name>
            <address>Sheridan Rd &amp; Columbia Ave</address>
            <total_docks>15</total_docks>
            <docks_in_service>15</docks_in_service>
            <status>In Service</status>
            <latitude>42.004583</latitude>
            <longitude>-87.661406</longitude>
            <location
                    human_address="{&quot;address&quot;:&quot;&quot;,&quot;city&quot;:&quot;&quot;,&quot;state&quot;:&quot;&quot;,&quot;zip&quot;:&quot;&quot;}"
                    latitude="42.004583" longitude="-87.661406" needs_recoding="false"/>
        </row>
        <row _address="https://data.cityofchicago.org/resource/bbyy-e7gq/542" _id="250261" _position="250261"
             _uuid="9D352AAA-CAAE-418A-B542-6854631CE0BE">
            <id>542</id>
            <station_name>Central Ave &amp; Madison St</station_name>
            <address>Central Ave &amp; Madison St</address>
            <total_docks>11</total_docks>
            <docks_in_service>10</docks_in_service>
            <status>In Service</status>
            <latitude>41.880121</latitude>
            <longitude>-87.763238</longitude>
            <location
                    human_address="{&quot;address&quot;:&quot;&quot;,&quot;city&quot;:&quot;&quot;,&quot;state&quot;:&quot;&quot;,&quot;zip&quot;:&quot;&quot;}"
                    latitude="41.880121" longitude="-87.763238" needs_recoding="false"/>
        </row>
        <row _address="https://data.cityofchicago.org/resource/bbyy-e7gq/639" _id="250385" _position="250385"
             _uuid="5799477D-7447-4079-B85F-C9C2563706F5">
            <id>639</id>
            <station_name>Lakefront Trail &amp; Wilson Ave</station_name>
            <address>Lakefront Trail &amp; Wilson Ave</address>
            <total_docks>15</total_docks>
            <docks_in_service>15</docks_in_service>
            <status>In Service</status>
            <latitude>41.965845</latitude>
            <longitude>-87.645361</longitude>
            <location
                    human_address="{&quot;address&quot;:&quot;&quot;,&quot;city&quot;:&quot;&quot;,&quot;state&quot;:&quot;&quot;,&quot;zip&quot;:&quot;&quot;}"
                    latitude="41.965845" longitude="-87.645361" needs_recoding="false"/>
        </row>
        <row _address="https://data.cityofchicago.org/resource/bbyy-e7gq/643" _id="250389" _position="250389"
             _uuid="AAF6C65F-B244-400C-9E19-BE98E13B152D">
            <id>643</id>
            <station_name>Smith Park (*)</station_name>
            <address>Smith Park (*)</address>
            <total_docks>16</total_docks>
            <docks_in_service>16</docks_in_service>
            <status>In Service</status>
            <latitude>41.892048</latitude>
            <longitude>-87.689397</longitude>
            <location
                    human_address="{&quot;address&quot;:&quot;&quot;,&quot;city&quot;:&quot;&quot;,&quot;state&quot;:&quot;&quot;,&quot;zip&quot;:&quot;&quot;}"
                    latitude="41.892048" longitude="-87.689397" needs_recoding="false"/>
        </row>
        <row _address="https://data.cityofchicago.org/resource/bbyy-e7gq/541" _id="250260" _position="250260"
             _uuid="559D14E8-409C-47E5-9579-2DD3B71F69C8">
            <id>541</id>
            <station_name>Central Ave &amp; Harrison St</station_name>
            <address>Central Ave &amp; Harrison St</address>
            <total_docks>11</total_docks>
            <docks_in_service>11</docks_in_service>
            <status>In Service</status>
            <latitude>41.872993</latitude>
            <longitude>-87.764499</longitude>
            <location
                    human_address="{&quot;address&quot;:&quot;&quot;,&quot;city&quot;:&quot;&quot;,&quot;state&quot;:&quot;&quot;,&quot;zip&quot;:&quot;&quot;}"
                    latitude="41.872993" longitude="-87.764499" needs_recoding="false"/>
        </row>
        <row _address="https://data.cityofchicago.org/resource/bbyy-e7gq/167" _id="249925" _position="249925"
             _uuid="9C1ED48D-70C2-4689-BBAD-1F51361D1DC7">
            <id>167</id>
            <station_name>Damen Ave &amp; Coulter St</station_name>
            <address>Damen Ave &amp; Coulter St</address>
            <total_docks>7</total_docks>
            <docks_in_service>7</docks_in_service>
            <status>In Service</status>
            <latitude>41.8492</latitude>
            <longitude>-87.67564</longitude>
            <location
                    human_address="{&quot;address&quot;:&quot;&quot;,&quot;city&quot;:&quot;&quot;,&quot;state&quot;:&quot;&quot;,&quot;zip&quot;:&quot;&quot;}"
                    latitude="41.8492" longitude="-87.67564" needs_recoding="false"/>
        </row>
        <row _address="https://data.cityofchicago.org/resource/bbyy-e7gq/539" _id="250258" _position="250258"
             _uuid="AEAFF468-8DB9-434F-A8F9-4AE1A214E08F">
            <id>539</id>
            <station_name>Cicero Ave &amp; Quincy St</station_name>
            <address>Cicero Ave &amp; Quincy St</address>
            <total_docks>11</total_docks>
            <docks_in_service>11</docks_in_service>
            <status>In Service</status>
            <latitude>41.877613</latitude>
            <longitude>-87.745405</longitude>
            <location
                    human_address="{&quot;address&quot;:&quot;&quot;,&quot;city&quot;:&quot;&quot;,&quot;state&quot;:&quot;&quot;,&quot;zip&quot;:&quot;&quot;}"
                    latitude="41.877613" longitude="-87.745405" needs_recoding="false"/>
        </row>
        <row _address="https://data.cityofchicago.org/resource/bbyy-e7gq/540" _id="250259" _position="250259"
             _uuid="F3A9E66B-62D6-4985-99F0-DEBD43F19E54">
            <id>540</id>
            <station_name>Laramie Ave &amp; Madison St</station_name>
            <address>Laramie Ave &amp; Madison St</address>
            <total_docks>11</total_docks>
            <docks_in_service>11</docks_in_service>
            <status>In Service</status>
            <latitude>41.880207</latitude>
            <longitude>-87.755337</longitude>
            <location
                    human_address="{&quot;address&quot;:&quot;&quot;,&quot;city&quot;:&quot;&quot;,&quot;state&quot;:&quot;&quot;,&quot;zip&quot;:&quot;&quot;}"
                    latitude="41.880207" longitude="-87.755337" needs_recoding="false"/>
        </row>
        <row _address="https://data.cityofchicago.org/resource/bbyy-e7gq/644" _id="250395" _position="250395"
             _uuid="689AFBF8-99B0-46EA-BB5C-40251ADB0A9E">
            <id>644</id>
            <station_name>Western Ave &amp; Fillmore St (*)</station_name>
            <address>Western Ave &amp; Fillmore St (*)</address>
            <total_docks>12</total_docks>
            <docks_in_service>12</docks_in_service>
            <status>In Service</status>
            <latitude>41.868563</latitude>
            <longitude>-87.686234</longitude>
            <location
                    human_address="{&quot;address&quot;:&quot;&quot;,&quot;city&quot;:&quot;&quot;,&quot;state&quot;:&quot;&quot;,&quot;zip&quot;:&quot;&quot;}"
                    latitude="41.868563" longitude="-87.686234" needs_recoding="false"/>
        </row>
        <row _address="https://data.cityofchicago.org/resource/bbyy-e7gq/641" _id="250391" _position="250391"
             _uuid="EC2CAF0E-0EF2-48AA-B077-D91437A8A7FA">
            <id>641</id>
            <station_name>Central Park Ave &amp; Bloomingdale Ave</station_name>
            <address>Central Park Ave &amp; Bloomingdale Ave</address>
            <total_docks>11</total_docks>
            <docks_in_service>11</docks_in_service>
            <status>In Service</status>
            <latitude>41.914166</latitude>
            <longitude>-87.716755</longitude>
            <location
                    human_address="{&quot;address&quot;:&quot;&quot;,&quot;city&quot;:&quot;&quot;,&quot;state&quot;:&quot;&quot;,&quot;zip&quot;:&quot;&quot;}"
                    latitude="41.914166" longitude="-87.716755" needs_recoding="false"/>
        </row>
        <row _address="https://data.cityofchicago.org/resource/bbyy-e7gq/171" _id="249929" _position="249929"
             _uuid="8A178E6A-5DC3-4BC0-BFA0-D93B863FDE7C">
            <id>171</id>
            <station_name>May St &amp; Cullerton St</station_name>
            <address>May St &amp; Cullerton St</address>
            <total_docks>11</total_docks>
            <docks_in_service>11</docks_in_service>
            <status>In Service</status>
            <latitude>41.855136</latitude>
            <longitude>-87.654127</longitude>
            <location
                    human_address="{&quot;address&quot;:&quot;&quot;,&quot;city&quot;:&quot;&quot;,&quot;state&quot;:&quot;&quot;,&quot;zip&quot;:&quot;&quot;}"
                    latitude="41.855136" longitude="-87.654127" needs_recoding="false"/>
        </row>
        <row _address="https://data.cityofchicago.org/resource/bbyy-e7gq/158" _id="249916" _position="249916"
             _uuid="55F63D25-DF03-43E5-B4C5-71AC18B31618">
            <id>158</id>
            <station_name>Milwaukee Ave &amp; Wabansia Ave</station_name>
            <address>Milwaukee Ave &amp; Wabansia Ave</address>
            <total_docks>15</total_docks>
            <docks_in_service>15</docks_in_service>
            <status>In Service</status>
            <latitude>41.912616</latitude>
            <longitude>-87.681391</longitude>
            <location
                    human_address="{&quot;address&quot;:&quot;&quot;,&quot;city&quot;:&quot;&quot;,&quot;state&quot;:&quot;&quot;,&quot;zip&quot;:&quot;&quot;}"
                    latitude="41.912616" longitude="-87.681391" needs_recoding="false"/>
        </row>
        <row _address="https://data.cityofchicago.org/resource/bbyy-e7gq/73" _id="249840" _position="249840"
             _uuid="098EBE93-D27E-474D-9E21-0314384A7567">
            <id>73</id>
            <station_name>Jefferson St &amp; Monroe St</station_name>
            <address>207 S Jefferson St</address>
            <total_docks>19</total_docks>
            <docks_in_service>19</docks_in_service>
            <status>In Service</status>
            <latitude>41.880422</latitude>
            <longitude>-87.642746</longitude>
            <location
                    human_address="{&quot;address&quot;:&quot;&quot;,&quot;city&quot;:&quot;&quot;,&quot;state&quot;:&quot;&quot;,&quot;zip&quot;:&quot;&quot;}"
                    latitude="41.880422" longitude="-87.642746" needs_recoding="false"/>
        </row>
        <row _address="https://data.cityofchicago.org/resource/bbyy-e7gq/160" _id="249918" _position="249918"
             _uuid="8302E323-FE43-413A-91A8-5F44C7FC3AF0">
            <id>160</id>
            <station_name>Campbell Ave &amp; North Ave</station_name>
            <address>Campbell Ave &amp; North Ave</address>
            <total_docks>15</total_docks>
            <docks_in_service>14</docks_in_service>
            <status>In Service</status>
            <latitude>41.910535</latitude>
            <longitude>-87.689556</longitude>
            <location
                    human_address="{&quot;address&quot;:&quot;&quot;,&quot;city&quot;:&quot;&quot;,&quot;state&quot;:&quot;&quot;,&quot;zip&quot;:&quot;&quot;}"
                    latitude="41.910535" longitude="-87.689556" needs_recoding="false"/>
        </row>
        <row _address="https://data.cityofchicago.org/resource/bbyy-e7gq/638" _id="250387" _position="250387"
             _uuid="87BF6A5F-F8F3-43CE-A965-2C60228E4BAB">
            <id>638</id>
            <station_name>Clinton St &amp; Jackson Blvd (*)</station_name>
            <address>Clinton St &amp; Jackson Blvd (*)</address>
            <total_docks>32</total_docks>
            <docks_in_service>32</docks_in_service>
            <status>In Service</status>
            <latitude>41.878419</latitude>
            <longitude>-87.640977</longitude>
            <location
                    human_address="{&quot;address&quot;:&quot;&quot;,&quot;city&quot;:&quot;&quot;,&quot;state&quot;:&quot;&quot;,&quot;zip&quot;:&quot;&quot;}"
                    latitude="41.878419" longitude="-87.640977" needs_recoding="false"/>
        </row>
        <row _address="https://data.cityofchicago.org/resource/bbyy-e7gq/640" _id="250394" _position="250394"
             _uuid="AB8FC0BA-EDDF-4176-9ED3-4C3CAB2A0367">
            <id>640</id>
            <station_name>Bernard St &amp; Elston Ave</station_name>
            <address>Bernard St &amp; Elston Ave</address>
            <total_docks>11</total_docks>
            <docks_in_service>11</docks_in_service>
            <status>In Service</status>
            <latitude>41.949923</latitude>
            <longitude>-87.713949</longitude>
            <location
                    human_address="{&quot;address&quot;:&quot;&quot;,&quot;city&quot;:&quot;&quot;,&quot;state&quot;:&quot;&quot;,&quot;zip&quot;:&quot;&quot;}"
                    latitude="41.949923" longitude="-87.713949" needs_recoding="false"/>
        </row>
        <row _address="https://data.cityofchicago.org/resource/bbyy-e7gq/652" _id="250396" _position="250396"
             _uuid="3B64E25D-4AF7-4D19-A304-1CDDFA7493C7">
            <id>652</id>
            <station_name>Rhodes Ave &amp; 71st St</station_name>
            <address>Rhodes Ave &amp; 71st St</address>
            <total_docks>11</total_docks>
            <docks_in_service>11</docks_in_service>
            <status>In Service</status>
            <latitude>41.766</latitude>
            <longitude>-87.611726</longitude>
            <location
                    human_address="{&quot;address&quot;:&quot;&quot;,&quot;city&quot;:&quot;&quot;,&quot;state&quot;:&quot;&quot;,&quot;zip&quot;:&quot;&quot;}"
                    latitude="41.766" longitude="-87.611726" needs_recoding="false"/>
        </row>
        <row _address="https://data.cityofchicago.org/resource/bbyy-e7gq/651" _id="250398" _position="250398"
             _uuid="98B2DBEA-4528-4AE8-9282-71BD139B9991">
            <id>651</id>
            <station_name>Michigan Ave &amp; 71st St</station_name>
            <address>Michigan Ave &amp; 71st St</address>
            <total_docks>7</total_docks>
            <docks_in_service>7</docks_in_service>
            <status>In Service</status>
            <latitude>41.765286</latitude>
            <longitude>-87.621748</longitude>
            <location
                    human_address="{&quot;address&quot;:&quot;&quot;,&quot;city&quot;:&quot;&quot;,&quot;state&quot;:&quot;&quot;,&quot;zip&quot;:&quot;&quot;}"
                    latitude="41.765286" longitude="-87.621748" needs_recoding="false"/>
        </row>
        <row _address="https://data.cityofchicago.org/resource/bbyy-e7gq/646" _id="250390" _position="250390"
             _uuid="8B10B282-BA6D-4F82-B264-97F7C1BAA2F8">
            <id>646</id>
            <station_name>State St &amp; 54th St</station_name>
            <address>State St &amp; 54th St</address>
            <total_docks>11</total_docks>
            <docks_in_service>11</docks_in_service>
            <status>In Service</status>
            <latitude>41.796642</latitude>
            <longitude>-87.625923</longitude>
            <location
                    human_address="{&quot;address&quot;:&quot;&quot;,&quot;city&quot;:&quot;&quot;,&quot;state&quot;:&quot;&quot;,&quot;zip&quot;:&quot;&quot;}"
                    latitude="41.796642" longitude="-87.625923" needs_recoding="false"/>
        </row>
        <row _address="https://data.cityofchicago.org/resource/bbyy-e7gq/637" _id="250388" _position="250388"
             _uuid="ECAF8AE9-A8EB-4F20-973C-AB79CF69B846">
            <id>637</id>
            <station_name>Wood St &amp; Chicago Ave (*)</station_name>
            <address>Wood St &amp; Chicago Ave (*)</address>
            <total_docks>16</total_docks>
            <docks_in_service>16</docks_in_service>
            <status>In Service</status>
            <latitude>41.895634</latitude>
            <longitude>-87.672069</longitude>
            <location
                    human_address="{&quot;address&quot;:&quot;&quot;,&quot;city&quot;:&quot;&quot;,&quot;state&quot;:&quot;&quot;,&quot;zip&quot;:&quot;&quot;}"
                    latitude="41.895634" longitude="-87.672069" needs_recoding="false"/>
        </row>
        <row _address="https://data.cityofchicago.org/resource/bbyy-e7gq/203" _id="249959" _position="249959"
             _uuid="A2D4835E-3FA3-4EC5-8E45-0FF294003A2B">
            <id>203</id>
            <station_name>Western Ave &amp; 21st St</station_name>
            <address>Western Ave &amp; 21st St</address>
            <total_docks>15</total_docks>
            <docks_in_service>15</docks_in_service>
            <status>In Service</status>
            <latitude>41.854109</latitude>
            <longitude>-87.685838</longitude>
            <location
                    human_address="{&quot;address&quot;:&quot;&quot;,&quot;city&quot;:&quot;&quot;,&quot;state&quot;:&quot;&quot;,&quot;zip&quot;:&quot;&quot;}"
                    latitude="41.854109" longitude="-87.685838" needs_recoding="false"/>
        </row>
        <row _address="https://data.cityofchicago.org/resource/bbyy-e7gq/544" _id="250263" _position="250263"
             _uuid="0D7875D9-4902-428C-87CC-A753C69BD191">
            <id>544</id>
            <station_name>Austin Blvd &amp; Madison St</station_name>
            <address>Austin Blvd &amp; Madison St</address>
            <total_docks>11</total_docks>
            <docks_in_service>11</docks_in_service>
            <status>In Service</status>
            <latitude>41.880281</latitude>
            <longitude>-87.774453</longitude>
            <location
                    human_address="{&quot;address&quot;:&quot;&quot;,&quot;city&quot;:&quot;&quot;,&quot;state&quot;:&quot;&quot;,&quot;zip&quot;:&quot;&quot;}"
                    latitude="41.880281" longitude="-87.774453" needs_recoding="false"/>
        </row>
        <row _address="https://data.cityofchicago.org/resource/bbyy-e7gq/206" _id="249962" _position="249962"
             _uuid="BBAEEA36-1FF6-4C51-86FC-36949851B5EA">
            <id>206</id>
            <station_name>Halsted St &amp; Archer Ave</station_name>
            <address>Halsted St &amp; Archer Ave</address>
            <total_docks>15</total_docks>
            <docks_in_service>15</docks_in_service>
            <status>In Service</status>
            <latitude>41.847203</latitude>
            <longitude>-87.646795</longitude>
            <location
                    human_address="{&quot;address&quot;:&quot;&quot;,&quot;city&quot;:&quot;&quot;,&quot;state&quot;:&quot;&quot;,&quot;zip&quot;:&quot;&quot;}"
                    latitude="41.847203" longitude="-87.646795" needs_recoding="false"/>
        </row>
        <row _address="https://data.cityofchicago.org/resource/bbyy-e7gq/572" _id="250294" _position="250294"
             _uuid="C0C3759F-D38C-473B-8978-5B43D4276386">
            <id>572</id>
            <station_name>State St &amp; 76th St</station_name>
            <address>State St &amp; 76th St</address>
            <total_docks>11</total_docks>
            <docks_in_service>10</docks_in_service>
            <status>In Service</status>
            <latitude>41.756971</latitude>
            <longitude>-87.624621</longitude>
            <location
                    human_address="{&quot;address&quot;:&quot;&quot;,&quot;city&quot;:&quot;&quot;,&quot;state&quot;:&quot;&quot;,&quot;zip&quot;:&quot;&quot;}"
                    latitude="41.756971" longitude="-87.624621" needs_recoding="false"/>
        </row>
        <row _address="https://data.cityofchicago.org/resource/bbyy-e7gq/192" _id="249948" _position="249948"
             _uuid="A469DC4F-0790-4EFF-BD94-116C3D87FAE6">
            <id>192</id>
            <station_name>Canal St &amp; Adams St</station_name>
            <address>Canal St &amp; Adams St</address>
            <total_docks>47</total_docks>
            <docks_in_service>47</docks_in_service>
            <status>In Service</status>
            <latitude>41.879255</latitude>
            <longitude>-87.639904</longitude>
            <location
                    human_address="{&quot;address&quot;:&quot;&quot;,&quot;city&quot;:&quot;&quot;,&quot;state&quot;:&quot;&quot;,&quot;zip&quot;:&quot;&quot;}"
                    latitude="41.879255" longitude="-87.639904" needs_recoding="false"/>
        </row>
        <row _address="https://data.cityofchicago.org/resource/bbyy-e7gq/655" _id="250392" _position="250392"
             _uuid="3B7E751C-3B87-4B49-9B72-3FB37697723C">
            <id>655</id>
            <station_name>Hoyne Ave &amp; Balmoral Ave</station_name>
            <address>Hoyne Ave &amp; Balmoral Ave</address>
            <total_docks>15</total_docks>
            <docks_in_service>15</docks_in_service>
            <status>In Service</status>
            <latitude>41.979851</latitude>
            <longitude>-87.681932</longitude>
            <location
                    human_address="{&quot;address&quot;:&quot;&quot;,&quot;city&quot;:&quot;&quot;,&quot;state&quot;:&quot;&quot;,&quot;zip&quot;:&quot;&quot;}"
                    latitude="41.979851" longitude="-87.681932" needs_recoding="false"/>
        </row>
        <row _address="https://data.cityofchicago.org/resource/bbyy-e7gq/198" _id="249954" _position="249954"
             _uuid="2DA254E5-DD28-4454-80C5-745AED90D985">
            <id>198</id>
            <station_name>Green St &amp; Madison St</station_name>
            <address>Green St &amp; Madison St</address>
            <total_docks>27</total_docks>
            <docks_in_service>26</docks_in_service>
            <status>In Service</status>
            <latitude>41.881892</latitude>
            <longitude>-87.648789</longitude>
            <location
                    human_address="{&quot;address&quot;:&quot;&quot;,&quot;city&quot;:&quot;&quot;,&quot;state&quot;:&quot;&quot;,&quot;zip&quot;:&quot;&quot;}"
                    latitude="41.881892" longitude="-87.648789" needs_recoding="false"/>
        </row>
        <row _address="https://data.cityofchicago.org/resource/bbyy-e7gq/200" _id="249956" _position="249956"
             _uuid="EF76F2FC-1816-424D-A8F7-40BE893C2BBE">
            <id>200</id>
            <station_name>MLK Jr Dr &amp; 47th St</station_name>
            <address>MLK Jr Dr &amp; 47th St</address>
            <total_docks>11</total_docks>
            <docks_in_service>10</docks_in_service>
            <status>In Service</status>
            <latitude>41.809851</latitude>
            <longitude>-87.616279</longitude>
            <location
                    human_address="{&quot;address&quot;:&quot;&quot;,&quot;city&quot;:&quot;&quot;,&quot;state&quot;:&quot;&quot;,&quot;zip&quot;:&quot;&quot;}"
                    latitude="41.809851" longitude="-87.616279" needs_recoding="false"/>
        </row>
        <row _address="https://data.cityofchicago.org/resource/bbyy-e7gq/201" _id="249957" _position="249957"
             _uuid="639D700A-C2E9-48C4-899F-DCCF1CC2944E">
            <id>201</id>
            <station_name>Indiana Ave &amp; 40th St</station_name>
            <address>Indiana Ave &amp; 40th St</address>
            <total_docks>11</total_docks>
            <docks_in_service>11</docks_in_service>
            <status>In Service</status>
            <latitude>41.82168</latitude>
            <longitude>-87.6216</longitude>
            <location
                    human_address="{&quot;address&quot;:&quot;&quot;,&quot;city&quot;:&quot;&quot;,&quot;state&quot;:&quot;&quot;,&quot;zip&quot;:&quot;&quot;}"
                    latitude="41.82168" longitude="-87.6216" needs_recoding="false"/>
        </row>
        <row _address="https://data.cityofchicago.org/resource/bbyy-e7gq/649" _id="250397" _position="250397"
             _uuid="50019744-9E5A-4735-8AE6-FF265609C20D">
            <id>649</id>
            <station_name>Stewart Ave &amp; 63rd St (*)</station_name>
            <address>Stewart Ave &amp; 63rd St (*)</address>
            <total_docks>12</total_docks>
            <docks_in_service>12</docks_in_service>
            <status>In Service</status>
            <latitude>41.779835</latitude>
            <longitude>-87.634774</longitude>
            <location
                    human_address="{&quot;address&quot;:&quot;&quot;,&quot;city&quot;:&quot;&quot;,&quot;state&quot;:&quot;&quot;,&quot;zip&quot;:&quot;&quot;}"
                    latitude="41.779835" longitude="-87.634774" needs_recoding="false"/>
        </row>
        <row _address="https://data.cityofchicago.org/resource/bbyy-e7gq/204" _id="249960" _position="249960"
             _uuid="FA768BE8-40B0-4A7E-A03E-12B23C500834">
            <id>204</id>
            <station_name>Prairie Ave &amp; Garfield Blvd</station_name>
            <address>Prairie Ave &amp; Garfield Blvd</address>
            <total_docks>11</total_docks>
            <docks_in_service>11</docks_in_service>
            <status>In Service</status>
            <latitude>41.794354</latitude>
            <longitude>-87.619304</longitude>
            <location
                    human_address="{&quot;address&quot;:&quot;&quot;,&quot;city&quot;:&quot;&quot;,&quot;state&quot;:&quot;&quot;,&quot;zip&quot;:&quot;&quot;}"
                    latitude="41.794354" longitude="-87.619304" needs_recoding="false"/>
        </row>
        <row _address="https://data.cityofchicago.org/resource/bbyy-e7gq/647" _id="250400" _position="250400"
             _uuid="86320F03-0F4F-4D03-9A65-670638ABA3F4">
            <id>647</id>
            <station_name>Elizabeth St &amp; 59th St</station_name>
            <address>Elizabeth St &amp; 59th St</address>
            <total_docks>7</total_docks>
            <docks_in_service>7</docks_in_service>
            <status>In Service</status>
            <latitude>41.786691</latitude>
            <longitude>-87.655859</longitude>
            <location
                    human_address="{&quot;address&quot;:&quot;&quot;,&quot;city&quot;:&quot;&quot;,&quot;state&quot;:&quot;&quot;,&quot;zip&quot;:&quot;&quot;}"
                    latitude="41.786691" longitude="-87.655859" needs_recoding="false"/>
        </row>
        <row _address="https://data.cityofchicago.org/resource/bbyy-e7gq/656" _id="250403" _position="250403"
             _uuid="093DA029-ACAC-40C1-91CA-E7B79ACB24A8">
            <id>656</id>
            <station_name>Damen Ave &amp; Walnut (Lake) St (*)</station_name>
            <address>Damen Ave &amp; Walnut (Lake) St (*)</address>
            <total_docks>16</total_docks>
            <docks_in_service>16</docks_in_service>
            <status>In Service</status>
            <latitude>41.885951</latitude>
            <longitude>-87.677009</longitude>
            <location
                    human_address="{&quot;address&quot;:&quot;&quot;,&quot;city&quot;:&quot;&quot;,&quot;state&quot;:&quot;&quot;,&quot;zip&quot;:&quot;&quot;}"
                    latitude="41.885951" longitude="-87.677009" needs_recoding="false"/>
        </row>
        <row _address="https://data.cityofchicago.org/resource/bbyy-e7gq/127" _id="249888" _position="249888"
             _uuid="8A1FAB05-DFC3-4923-A3AD-5309EF2D1DDB">
            <id>127</id>
            <station_name>Lincoln Ave &amp; Fullerton Ave</station_name>
            <address>Lincoln Ave &amp; Fullerton Ave</address>
            <total_docks>15</total_docks>
            <docks_in_service>15</docks_in_service>
            <status>In Service</status>
            <latitude>41.925905</latitude>
            <longitude>-87.64926</longitude>
            <location
                    human_address="{&quot;address&quot;:&quot;&quot;,&quot;city&quot;:&quot;&quot;,&quot;state&quot;:&quot;&quot;,&quot;zip&quot;:&quot;&quot;}"
                    latitude="41.925905" longitude="-87.64926" needs_recoding="false"/>
        </row>
        <row _address="https://data.cityofchicago.org/resource/bbyy-e7gq/648" _id="250401" _position="250401"
             _uuid="CA3B3109-7315-40DC-9954-901ABB22F740">
            <id>648</id>
            <station_name>Carpenter St &amp; 63rd St</station_name>
            <address>Carpenter St &amp; 63rd St</address>
            <total_docks>7</total_docks>
            <docks_in_service>7</docks_in_service>
            <status>In Service</status>
            <latitude>41.77987</latitude>
            <longitude>-87.650919</longitude>
            <location
                    human_address="{&quot;address&quot;:&quot;&quot;,&quot;city&quot;:&quot;&quot;,&quot;state&quot;:&quot;&quot;,&quot;zip&quot;:&quot;&quot;}"
                    latitude="41.77987" longitude="-87.650919" needs_recoding="false"/>
        </row>
        <row _address="https://data.cityofchicago.org/resource/bbyy-e7gq/650" _id="250402" _position="250402"
             _uuid="51980996-7043-4862-A438-D5819D398AD2">
            <id>650</id>
            <station_name>Eggleston Ave &amp; 69th St (*)</station_name>
            <address>Eggleston Ave &amp; 69th St (*)</address>
            <total_docks>12</total_docks>
            <docks_in_service>12</docks_in_service>
            <status>In Service</status>
            <latitude>41.768898</latitude>
            <longitude>-87.635876</longitude>
            <location
                    human_address="{&quot;address&quot;:&quot;&quot;,&quot;city&quot;:&quot;&quot;,&quot;state&quot;:&quot;&quot;,&quot;zip&quot;:&quot;&quot;}"
                    latitude="41.768898" longitude="-87.635876" needs_recoding="false"/>
        </row>
        <row _address="https://data.cityofchicago.org/resource/bbyy-e7gq/233" _id="249988" _position="249988"
             _uuid="E4613219-6A20-4D5B-962E-678ABBD801F7">
            <id>233</id>
            <station_name>Sangamon St &amp; Washington Blvd (*)</station_name>
            <address>Sangamon St &amp; Washington Blvd (*)</address>
            <total_docks>16</total_docks>
            <docks_in_service>15</docks_in_service>
            <status>In Service</status>
            <latitude>41.883165</latitude>
            <longitude>-87.6511</longitude>
            <location
                    human_address="{&quot;address&quot;:&quot;&quot;,&quot;city&quot;:&quot;&quot;,&quot;state&quot;:&quot;&quot;,&quot;zip&quot;:&quot;&quot;}"
                    latitude="41.883165" longitude="-87.6511" needs_recoding="false"/>
        </row>
        <row _address="https://data.cityofchicago.org/resource/bbyy-e7gq/181" _id="249939" _position="249939"
             _uuid="4E57D0DD-98A0-48AF-821E-7A610DD70A7B">
            <id>181</id>
            <station_name>LaSalle St &amp; Illinois St</station_name>
            <address>On Street</address>
            <total_docks>31</total_docks>
            <docks_in_service>31</docks_in_service>
            <status>In Service</status>
            <latitude>41.890762</latitude>
            <longitude>-87.631697</longitude>
            <location
                    human_address="{&quot;address&quot;:&quot;&quot;,&quot;city&quot;:&quot;&quot;,&quot;state&quot;:&quot;&quot;,&quot;zip&quot;:&quot;&quot;}"
                    latitude="41.890762" longitude="-87.631697" needs_recoding="false"/>
        </row>
        <row _address="https://data.cityofchicago.org/resource/bbyy-e7gq/658" _id="250404" _position="250404"
             _uuid="4AB3E10E-F7ED-459F-94B2-B65ACFEDC0B2">
            <id>658</id>
            <station_name>Leavitt St &amp; Division St (*)</station_name>
            <address>Leavitt St &amp; Division St (*)</address>
            <total_docks>16</total_docks>
            <docks_in_service>15</docks_in_service>
            <status>In Service</status>
            <latitude>41.902997</latitude>
            <longitude>-87.683825</longitude>
            <location
                    human_address="{&quot;address&quot;:&quot;&quot;,&quot;city&quot;:&quot;&quot;,&quot;state&quot;:&quot;&quot;,&quot;zip&quot;:&quot;&quot;}"
                    latitude="41.902997" longitude="-87.683825" needs_recoding="false"/>
        </row>
        <row _address="https://data.cityofchicago.org/resource/bbyy-e7gq/174" _id="249932" _position="249932"
             _uuid="36E6766D-9121-4F0F-ADB4-007631883163">
            <id>174</id>
            <station_name>Canal St &amp; Madison St</station_name>
            <address>Canal St &amp; Madison St</address>
            <total_docks>35</total_docks>
            <docks_in_service>35</docks_in_service>
            <status>In Service</status>
            <latitude>41.882091</latitude>
            <longitude>-87.639833</longitude>
            <location
                    human_address="{&quot;address&quot;:&quot;&quot;,&quot;city&quot;:&quot;&quot;,&quot;state&quot;:&quot;&quot;,&quot;zip&quot;:&quot;&quot;}"
                    latitude="41.882091" longitude="-87.639833" needs_recoding="false"/>
        </row>
        <row _address="https://data.cityofchicago.org/resource/bbyy-e7gq/215" _id="249971" _position="249971"
             _uuid="15330F38-417E-453B-931D-E04B04E62739">
            <id>215</id>
            <station_name>Damen Ave &amp; Madison St</station_name>
            <address>Damen Ave &amp; Madison St</address>
            <total_docks>14</total_docks>
            <docks_in_service>12</docks_in_service>
            <status>In Service</status>
            <latitude>41.88137</latitude>
            <longitude>-87.67493</longitude>
            <location
                    human_address="{&quot;address&quot;:&quot;&quot;,&quot;city&quot;:&quot;&quot;,&quot;state&quot;:&quot;&quot;,&quot;zip&quot;:&quot;&quot;}"
                    latitude="41.88137" longitude="-87.67493" needs_recoding="false"/>
        </row>
        <row _address="https://data.cityofchicago.org/resource/bbyy-e7gq/280" _id="250032" _position="250032"
             _uuid="1CC840EB-1875-4F70-ABFE-B4DEB6C32849">
            <id>280</id>
            <station_name>Morgan St &amp; 31st St</station_name>
            <address>Morgan St &amp; 31st St</address>
            <total_docks>11</total_docks>
            <docks_in_service>11</docks_in_service>
            <status>In Service</status>
            <latitude>41.8378</latitude>
            <longitude>-87.65114</longitude>
            <location
                    human_address="{&quot;address&quot;:&quot;&quot;,&quot;city&quot;:&quot;&quot;,&quot;state&quot;:&quot;&quot;,&quot;zip&quot;:&quot;&quot;}"
                    latitude="41.8378" longitude="-87.65114" needs_recoding="false"/>
        </row>
        <row _address="https://data.cityofchicago.org/resource/bbyy-e7gq/274" _id="250026" _position="250026"
             _uuid="498806CA-9399-40D1-9CFD-50E29C1D1141">
            <id>274</id>
            <station_name>Racine Ave &amp; 15th St</station_name>
            <address>Racine Ave &amp; 15th St</address>
            <total_docks>15</total_docks>
            <docks_in_service>15</docks_in_service>
            <status>In Service</status>
            <latitude>41.861267</latitude>
            <longitude>-87.656625</longitude>
            <location
                    human_address="{&quot;address&quot;:&quot;&quot;,&quot;city&quot;:&quot;&quot;,&quot;state&quot;:&quot;&quot;,&quot;zip&quot;:&quot;&quot;}"
                    latitude="41.861267" longitude="-87.656625" needs_recoding="false"/>
        </row>
        <row _address="https://data.cityofchicago.org/resource/bbyy-e7gq/217" _id="249973" _position="249973"
             _uuid="9EA67BE1-AA2C-4A0F-8218-77F85C7BCFA4">
            <id>217</id>
            <station_name>Racine Ave (May St) &amp; Fulton St</station_name>
            <address>Racine Ave (May St) &amp; Fulton St</address>
            <total_docks>14</total_docks>
            <docks_in_service>14</docks_in_service>
            <status>In Service</status>
            <latitude>41.886926</latitude>
            <longitude>-87.656919</longitude>
            <location
                    human_address="{&quot;address&quot;:&quot;&quot;,&quot;city&quot;:&quot;&quot;,&quot;state&quot;:&quot;&quot;,&quot;zip&quot;:&quot;&quot;}"
                    latitude="41.886926" longitude="-87.656919" needs_recoding="false"/>
        </row>
        <row _address="https://data.cityofchicago.org/resource/bbyy-e7gq/271" _id="250023" _position="250023"
             _uuid="10A75709-E1EF-49C6-B915-CEB9648C8DE7">
            <id>271</id>
            <station_name>Cottage Grove Ave &amp; 43rd St</station_name>
            <address>Cottage Grove Ave &amp; 43rd St</address>
            <total_docks>11</total_docks>
            <docks_in_service>8</docks_in_service>
            <status>In Service</status>
            <latitude>41.816499</latitude>
            <longitude>-87.606582</longitude>
            <location
                    human_address="{&quot;address&quot;:&quot;&quot;,&quot;city&quot;:&quot;&quot;,&quot;state&quot;:&quot;&quot;,&quot;zip&quot;:&quot;&quot;}"
                    latitude="41.816499" longitude="-87.606582" needs_recoding="false"/>
        </row>
        <row _address="https://data.cityofchicago.org/resource/bbyy-e7gq/186" _id="249944" _position="249944"
             _uuid="98EBC58A-AC09-4C64-B4CF-2A56FE437A79">
            <id>186</id>
            <station_name>Ogden Ave &amp; Race Ave</station_name>
            <address>Ogden Ave &amp; Race Ave</address>
            <total_docks>15</total_docks>
            <docks_in_service>14</docks_in_service>
            <status>In Service</status>
            <latitude>41.891795</latitude>
            <longitude>-87.658751</longitude>
            <location
                    human_address="{&quot;address&quot;:&quot;&quot;,&quot;city&quot;:&quot;&quot;,&quot;state&quot;:&quot;&quot;,&quot;zip&quot;:&quot;&quot;}"
                    latitude="41.891795" longitude="-87.658751" needs_recoding="false"/>
        </row>
        <row _address="https://data.cityofchicago.org/resource/bbyy-e7gq/281" _id="250033" _position="250033"
             _uuid="A1DEC506-CCA5-452F-80DC-C7D0B3998910">
            <id>281</id>
            <station_name>Western Ave &amp; 24th St</station_name>
            <address>Western Ave &amp; 24th St</address>
            <total_docks>6</total_docks>
            <docks_in_service>6</docks_in_service>
            <status>In Service</status>
            <latitude>41.84847</latitude>
            <longitude>-87.685109</longitude>
            <location
                    human_address="{&quot;address&quot;:&quot;&quot;,&quot;city&quot;:&quot;&quot;,&quot;state&quot;:&quot;&quot;,&quot;zip&quot;:&quot;&quot;}"
                    latitude="41.84847" longitude="-87.685109" needs_recoding="false"/>
        </row>
        <row _address="https://data.cityofchicago.org/resource/bbyy-e7gq/270" _id="250022" _position="250022"
             _uuid="794FC8CB-F83D-4AF1-B649-275EF7EFFA9B">
            <id>270</id>
            <station_name>Stony Island Ave &amp; 75th St</station_name>
            <address>Stony Island Ave &amp; 75th St</address>
            <total_docks>11</total_docks>
            <docks_in_service>11</docks_in_service>
            <status>In Service</status>
            <latitude>41.75866967</latitude>
            <longitude>-87.586882871</longitude>
            <location
                    human_address="{&quot;address&quot;:&quot;&quot;,&quot;city&quot;:&quot;&quot;,&quot;state&quot;:&quot;&quot;,&quot;zip&quot;:&quot;&quot;}"
                    latitude="41.7586696704" longitude="-87.586882871" needs_recoding="false"/>
        </row>
        <row _address="https://data.cityofchicago.org/resource/bbyy-e7gq/278" _id="250030" _position="250030"
             _uuid="62FE1B88-A704-4DF7-96A5-9250260A677D">
            <id>278</id>
            <station_name>Wallace St &amp; 35th St</station_name>
            <address>On Street</address>
            <total_docks>15</total_docks>
            <docks_in_service>15</docks_in_service>
            <status>In Service</status>
            <latitude>41.830629</latitude>
            <longitude>-87.64129</longitude>
            <location
                    human_address="{&quot;address&quot;:&quot;&quot;,&quot;city&quot;:&quot;&quot;,&quot;state&quot;:&quot;&quot;,&quot;zip&quot;:&quot;&quot;}"
                    latitude="41.830629" longitude="-87.64129" needs_recoding="false"/>
        </row>
        <row _address="https://data.cityofchicago.org/resource/bbyy-e7gq/405" _id="250326" _position="250326"
             _uuid="F94A93F9-0083-466B-BAA3-10F78A1F5BBF">
            <id>405</id>
            <station_name>Wentworth Ave &amp; 35th St</station_name>
